{
"type": "FeatureCollection",
"name": "Gereja",
"crs": { "type": "name", "properties": { "name": "urn:ogc:def:crs:OGC:1.3:CRS84" } },
"features": [
{ "type": "Feature", "properties": { "Name": "GKE \"Efata\" Monterado", "description": null, "timestamp": null, "begin": null, "end": null, "altitudeMode": null, "tessellate": -1, "extrude": 0, "visibility": -1, "drawOrder": null, "icon": null }, "geometry": { "type": "Point", "coordinates": [ 109.1386296, 0.7547665, 0.0 ] } },
{ "type": "Feature", "properties": { "Name": "Gereja Katolik St. Petrus Pakucing Kecamatan Monterado", "description": null, "timestamp": null, "begin": null, "end": null, "altitudeMode": null, "tessellate": -1, "extrude": 0, "visibility": -1, "drawOrder": null, "icon": null }, "geometry": { "type": "Point", "coordinates": [ 109.1148809, 0.8472145, 0.0 ] } },
{ "type": "Feature", "properties": { "Name": "Gereja Katolik St. Montfort Paroki Monterado", "description": null, "timestamp": null, "begin": null, "end": null, "altitudeMode": null, "tessellate": -1, "extrude": 0, "visibility": -1, "drawOrder": null, "icon": null }, "geometry": { "type": "Point", "coordinates": [ 109.1323906, 0.7599625, 0.0 ] } },
{ "type": "Feature", "properties": { "Name": "Gereja Bethel Tabernakel", "description": null, "timestamp": null, "begin": null, "end": null, "altitudeMode": null, "tessellate": -1, "extrude": 0, "visibility": -1, "drawOrder": null, "icon": null }, "geometry": { "type": "Point", "coordinates": [ 109.1326629, 0.7972904, 0.0 ] } },
{ "type": "Feature", "properties": { "Name": "GEREJA KATHOLIK SANTO PIUS X", "description": null, "timestamp": null, "begin": null, "end": null, "altitudeMode": null, "tessellate": -1, "extrude": 0, "visibility": -1, "drawOrder": null, "icon": null }, "geometry": { "type": "Point", "coordinates": [ 109.0601933, 0.7409788, 0.0 ] } },
{ "type": "Feature", "properties": { "Name": "Gereja Katolik St. Yohanes", "description": null, "timestamp": null, "begin": null, "end": null, "altitudeMode": null, "tessellate": -1, "extrude": 0, "visibility": -1, "drawOrder": null, "icon": null }, "geometry": { "type": "Point", "coordinates": [ 109.05478, 0.798685, 0.0 ] } },
{ "type": "Feature", "properties": { "Name": "Gereja kristen setia indonesia", "description": null, "timestamp": null, "begin": null, "end": null, "altitudeMode": null, "tessellate": -1, "extrude": 0, "visibility": -1, "drawOrder": null, "icon": null }, "geometry": { "type": "Point", "coordinates": [ 109.0556334, 0.803053, 0.0 ] } },
{ "type": "Feature", "properties": { "Name": "Gereja GBI Monterado", "description": null, "timestamp": null, "begin": null, "end": null, "altitudeMode": null, "tessellate": -1, "extrude": 0, "visibility": -1, "drawOrder": null, "icon": null }, "geometry": { "type": "Point", "coordinates": [ 109.1400598, 0.7512635, 0.0 ] } },
{ "type": "Feature", "properties": { "Name": "GJKI Jemaat PETRA SERINDU ,Monterado, Kalimantan Barat", "description": null, "timestamp": null, "begin": null, "end": null, "altitudeMode": null, "tessellate": -1, "extrude": 0, "visibility": -1, "drawOrder": null, "icon": null }, "geometry": { "type": "Point", "coordinates": [ 109.0916815, 0.6863045, 0.0 ] } },
{ "type": "Feature", "properties": { "Name": "Gereja Katolik Santo Yohanes", "description": null, "timestamp": null, "begin": null, "end": null, "altitudeMode": null, "tessellate": -1, "extrude": 0, "visibility": -1, "drawOrder": null, "icon": null }, "geometry": { "type": "Point", "coordinates": [ 109.0918538, 0.8268621, 0.0 ] } },
{ "type": "Feature", "properties": { "Name": "GEREJA KATHOLIK SANTO PIUS X", "description": null, "timestamp": null, "begin": null, "end": null, "altitudeMode": null, "tessellate": -1, "extrude": 0, "visibility": -1, "drawOrder": null, "icon": null }, "geometry": { "type": "Point", "coordinates": [ 109.0601933, 0.7409788, 0.0 ] } },
{ "type": "Feature", "properties": { "Name": "Gereja Katolik St. Yohanes", "description": null, "timestamp": null, "begin": null, "end": null, "altitudeMode": null, "tessellate": -1, "extrude": 0, "visibility": -1, "drawOrder": null, "icon": null }, "geometry": { "type": "Point", "coordinates": [ 109.05478, 0.798685, 0.0 ] } }
]
}
