{
"type": "FeatureCollection",
"name": "Masjidd",
"crs": { "type": "name", "properties": { "name": "urn:ogc:def:crs:OGC:1.3:CRS84" } },
"features": [
{ "type": "Feature", "properties": { "Name": "Masjid Jami' Darussalam", "description": null, "timestamp": null, "begin": null, "end": null, "altitudeMode": null, "tessellate": -1, "extrude": 0, "visibility": -1, "drawOrder": null, "icon": null }, "geometry": { "type": "Point", "coordinates": [ 109.1636274, 0.8717044, 0.0 ] } },
{ "type": "Feature", "properties": { "Name": "Masjid Ulul Azmi", "description": null, "timestamp": null, "begin": null, "end": null, "altitudeMode": null, "tessellate": -1, "extrude": 0, "visibility": -1, "drawOrder": null, "icon": null }, "geometry": { "type": "Point", "coordinates": [ 109.1635318, 0.8645384, 0.0 ] } },
{ "type": "Feature", "properties": { "Name": "Masjid AL-FITRAH", "description": null, "timestamp": null, "begin": null, "end": null, "altitudeMode": null, "tessellate": -1, "extrude": 0, "visibility": -1, "drawOrder": null, "icon": null }, "geometry": { "type": "Point", "coordinates": [ 109.1576373, 0.8597371, 0.0 ] } },
{ "type": "Feature", "properties": { "Name": "Masjid AN-NUR", "description": null, "timestamp": null, "begin": null, "end": null, "altitudeMode": null, "tessellate": -1, "extrude": 0, "visibility": -1, "drawOrder": null, "icon": null }, "geometry": { "type": "Point", "coordinates": [ 109.1038014, 0.8364391, 0.0 ] } },
{ "type": "Feature", "properties": { "Name": "Masjid Al Ikhlas", "description": null, "timestamp": null, "begin": null, "end": null, "altitudeMode": null, "tessellate": -1, "extrude": 0, "visibility": -1, "drawOrder": null, "icon": null }, "geometry": { "type": "Point", "coordinates": [ 109.1317919, 0.799619, 0.0 ] } },
{ "type": "Feature", "properties": { "Name": "Masjid Al Muhajirin", "description": null, "timestamp": null, "begin": null, "end": null, "altitudeMode": null, "tessellate": -1, "extrude": 0, "visibility": -1, "drawOrder": null, "icon": null }, "geometry": { "type": "Point", "coordinates": [ 109.131317, 0.79511, 0.0 ] } },
{ "type": "Feature", "properties": { "Name": "Surau Al Huda Monterado", "description": null, "timestamp": null, "begin": null, "end": null, "altitudeMode": null, "tessellate": -1, "extrude": 0, "visibility": -1, "drawOrder": null, "icon": null }, "geometry": { "type": "Point", "coordinates": [ 109.1343559, 0.7555204, 0.0 ] } },
{ "type": "Feature", "properties": { "Name": "Masjid Al Amin", "description": null, "timestamp": null, "begin": null, "end": null, "altitudeMode": null, "tessellate": -1, "extrude": 0, "visibility": -1, "drawOrder": null, "icon": null }, "geometry": { "type": "Point", "coordinates": [ 109.1343785, 0.7566356, 0.0 ] } },
{ "type": "Feature", "properties": { "Name": "Mesjid Rahmatullah", "description": null, "timestamp": null, "begin": null, "end": null, "altitudeMode": null, "tessellate": -1, "extrude": 0, "visibility": -1, "drawOrder": null, "icon": null }, "geometry": { "type": "Point", "coordinates": [ 109.1347443, 0.7575156, 0.0 ] } },
{ "type": "Feature", "properties": { "Name": "Masjid Al Furqon", "description": null, "timestamp": null, "begin": null, "end": null, "altitudeMode": null, "tessellate": -1, "extrude": 0, "visibility": -1, "drawOrder": null, "icon": null }, "geometry": { "type": "Point", "coordinates": [ 109.1343785, 0.7566356, 0.0 ] } },
{ "type": "Feature", "properties": { "Name": "Masjid Darul Muttaqin", "description": null, "timestamp": null, "begin": null, "end": null, "altitudeMode": null, "tessellate": -1, "extrude": 0, "visibility": -1, "drawOrder": null, "icon": null }, "geometry": { "type": "Point", "coordinates": [ 109.1343785, 0.7566356, 0.0 ] } },
{ "type": "Feature", "properties": { "Name": "Masjid Darul Istiqomah", "description": null, "timestamp": null, "begin": null, "end": null, "altitudeMode": null, "tessellate": -1, "extrude": 0, "visibility": -1, "drawOrder": null, "icon": null }, "geometry": { "type": "Point", "coordinates": [ 109.1343785, 0.7566356, 0.0 ] } },
{ "type": "Feature", "properties": { "Name": "Masjid darul istiqomah", "description": null, "timestamp": null, "begin": null, "end": null, "altitudeMode": null, "tessellate": -1, "extrude": 0, "visibility": -1, "drawOrder": null, "icon": null }, "geometry": { "type": "Point", "coordinates": [ 109.1283219, 0.8607142, 0.0 ] } }
]
}
