<?xml version="1.0" encoding="UTF-8"?>
<kml xmlns="http://www.opengis.net/kml/2.2">
  <Document>
    <name>Sekolah Menengah Pertama (SMP)</name>
    <Style id="icon-1899-0288D1-nodesc-normal">
      <IconStyle>
        <color>ffd18802</color>
        <scale>1</scale>
        <Icon>
          <href>https://www.gstatic.com/mapspro/images/stock/503-wht-blank_maps.png</href>
        </Icon>
        <hotSpot x="32" xunits="pixels" y="64" yunits="insetPixels"/>
      </IconStyle>
      <LabelStyle>
        <scale>0</scale>
      </LabelStyle>
      <BalloonStyle>
        <text><![CDATA[<h3>$[name]</h3>]]></text>
      </BalloonStyle>
    </Style>
    <Style id="icon-1899-0288D1-nodesc-highlight">
      <IconStyle>
        <color>ffd18802</color>
        <scale>1</scale>
        <Icon>
          <href>https://www.gstatic.com/mapspro/images/stock/503-wht-blank_maps.png</href>
        </Icon>
        <hotSpot x="32" xunits="pixels" y="64" yunits="insetPixels"/>
      </IconStyle>
      <LabelStyle>
        <scale>1</scale>
      </LabelStyle>
      <BalloonStyle>
        <text><![CDATA[<h3>$[name]</h3>]]></text>
      </BalloonStyle>
    </Style>
    <StyleMap id="icon-1899-0288D1-nodesc">
      <Pair>
        <key>normal</key>
        <styleUrl>#icon-1899-0288D1-nodesc-normal</styleUrl>
      </Pair>
      <Pair>
        <key>highlight</key>
        <styleUrl>#icon-1899-0288D1-nodesc-highlight</styleUrl>
      </Pair>
    </StyleMap>
    <Placemark>
      <name>SMP Negeri 1 Monterado</name>
      <styleUrl>#icon-1899-0288D1-nodesc</styleUrl>
      <Point>
        <coordinates>
          109.1306546,0.7632218,0
        </coordinates>
      </Point>
    </Placemark>
    <Placemark>
      <name>SMP Negeri 2 Monterado</name>
      <styleUrl>#icon-1899-0288D1-nodesc</styleUrl>
      <Point>
        <coordinates>
          109.162178,0.724442,0
        </coordinates>
      </Point>
    </Placemark>
    <Placemark>
      <name>SMPN 03 Monterado</name>
      <styleUrl>#icon-1899-0288D1-nodesc</styleUrl>
      <Point>
        <coordinates>
          109.0794425,0.7565876,0
        </coordinates>
      </Point>
    </Placemark>
    <Placemark>
      <name>SMP N 4 MONTERADO</name>
      <styleUrl>#icon-1899-0288D1-nodesc</styleUrl>
      <Point>
        <coordinates>
          109.0578798,0.8071641,0
        </coordinates>
      </Point>
    </Placemark>
    <Placemark>
      <name>SMP NEGERI 5 MONTERADO</name>
      <styleUrl>#icon-1899-0288D1-nodesc</styleUrl>
      <Point>
        <coordinates>
          109.1133093,0.8453007,0
        </coordinates>
      </Point>
    </Placemark>
    <Placemark>
      <name>SMPN 6 MONTERADO</name>
      <styleUrl>#icon-1899-0288D1-nodesc</styleUrl>
      <Point>
        <coordinates>
          109.1220297,0.737911,0
        </coordinates>
      </Point>
    </Placemark>
    <Placemark>
      <name>SMP Negeri 7 Monterado</name>
      <styleUrl>#icon-1899-0288D1-nodesc</styleUrl>
      <Point>
        <coordinates>
          109.0889751,0.69267,0
        </coordinates>
      </Point>
    </Placemark>
  </Document>
</kml>
